,Route_Name,School_Level,transfer_Route_count,Latitude,Longitude,Address,city,gu
0,부산 도시철도 1호선,일반역,0,35.048429,128.965919,부산광역시 사하구 다대로 지하 692,부산광역시,사하구
1,부산 도시철도 1호선,일반역,0,35.057288,128.971251,부산광역시 사하구 다대로 지하 548,부산광역시,사하구
2,부산 도시철도 1호선,일반역,0,35.065179,128.979932,부산광역시 사하구 다대로 지하422,부산광역시,사하구
3,부산 도시철도 1호선,일반역,0,35.074222,128.976638,부산광역시 사하구 다대로 지하310,부산광역시,사하구
4,부산 도시철도 1호선,일반역,0,35.081555,128.977638,부산광역시 사하구 다대로 지하230,부산광역시,사하구
5,부산 도시철도 1호선,일반역,0,35.089819,128.974029,부산광역시 사하구 신산로 지하168,부산광역시,사하구
6,부산 도시철도 1호선,일반역,0,35.09556,128.96056,부산광역시 사하구 하신번영로 140,부산광역시,사하구
7,부산 도시철도 1호선,일반역,0,35.10611,128.96667,부산광역시 사하구 낙동남로 지하 1415,부산광역시,사하구
8,부산 도시철도 1호선,일반역,0,35.10333,128.97417,부산광역시 사하구 낙동대로 지하 405,부산광역시,사하구
9,부산 도시철도 1호선,일반역,0,35.09972,128.98333,부산광역시 사하구 낙동대로 지하 309,부산광역시,사하구
10,부산 도시철도 1호선,일반역,0,35.1,128.9925,부산광역시 사하구 낙동대로 지하 221,부산광역시,사하구
11,부산 도시철도 1호선,일반역,0,35.10306,128.99972,부산광역시 사하구 낙동대로 지하 141,부산광역시,사하구
12,부산 도시철도 1호선,일반역,0,35.11083,129.01194,부산광역시 서구 대영로 지하 1,부산광역시,서구
13,부산 도시철도 1호선,일반역,0,35.11056,129.01778,부산광역시 서구 구덕로 지하 290,부산광역시,서구
14,부산 도시철도 1호선,일반역,0,35.10083,129.01972,부산광역시 서구 구덕로 지하 170,부산광역시,서구
15,부산 도시철도 1호선,일반역,0,35.0975,129.02694,부산광역시 중구 구덕로 지하 80,부산광역시,중구
16,부산 도시철도 1호선,일반역,0,35.09778,129.03472,부산광역시 중구 구덕로 지하 12,부산광역시,중구
17,부산 도시철도 1호선,일반역,0,35.10389,129.03639,부산광역시 중구 중앙대로 지하 83,부산광역시,중구
18,부산 도시철도 1호선,일반역,0,35.11528,129.03972,부산광역시 동구 중앙대로 지하 200,부산광역시,동구
19,부산 도시철도 1호선,일반역,0,35.12111,129.04296,부산광역시 동구 중앙대로 지하 264,부산광역시,동구
20,부산 도시철도 1호선,일반역,0,35.12778,129.04778,부산광역시 동구 중앙대로 지하 350,부산광역시,동구
21,부산 도시철도 1호선,일반역,0,35.13417,129.05417,부산광역시 동구 중앙대로 지하 446,부산광역시,동구
22,부산 도시철도 1호선,일반역,0,35.14139,129.05944,부산광역시 동구 범일로 지하 108,부산광역시,동구
23,부산 도시철도 1호선,일반역,0,35.14722,129.05917,부산광역시 부산진구 중앙대로 지하 612,부산광역시,부산진구
24,부산 도시철도 1호선,환승역,부산 도시철도 1호선+부산 도시철도 2호선,35.15778,129.05917,부산광역시 부산진구 중앙대로 지하 730,부산광역시,부산진구
25,부산 도시철도 1호선,일반역,0,35.1625,129.06278,부산광역시 부산진구 중앙대로 지하 786,부산광역시,부산진구
26,부산 도시철도 1호선,일반역,0,35.17304,129.07119,부산광역시 부산진구 중앙대로 지하930 ,부산광역시,부산진구
27,부산 도시철도 1호선,일반역,0,35.17972,129.07667,부산광역시 연제구 중앙대로 지하 1017,부산광역시,연제구
28,부산 도시철도 1호선,환승역,부산 도시철도 1호선+부산 도시철도 3호선,35.18611,129.08167,부산광역시 연제구 중앙대로 지하 1101,부산광역시,연제구
29,부산 도시철도 1호선,환승역,부산 도시철도 1호선+동해선,35.19583,129.08,부산광역시 연제구 중앙대로 지하 1217,부산광역시,연제구
30,부산 도시철도 1호선,환승역,부산 도시철도 1호선+부산 경량도시철도 4호선,35.20556,129.07861,부산광역시 동래구 중앙대로 1324,부산광역시,동래구
31,부산 도시철도 1호선,일반역,0,35.21222,129.07944,부산광역시 동래구 중앙대로 1414,부산광역시,동래구
32,부산 도시철도 1호선,일반역,0,35.22056,129.08667,부산광역시 동래구 중앙대로 1520,부산광역시,동래구
33,부산 도시철도 1호선,일반역,0,35.23,129.08944,부산광역시 금정구 장전온천천로 48,부산광역시,금정구
34,부산 도시철도 1호선,일반역,0,35.23806,129.08806,부산광역시 금정구 장전온천천로 144,부산광역시,금정구
35,부산 도시철도 1호선,일반역,0,35.24722,129.09139,부산광역시 금정구 금정로 233번길 46,부산광역시,금정구
36,부산 도시철도 1호선,일반역,0,35.25694,129.09139,부산광역시 금정구 중앙대로 1927-1,부산광역시,금정구
37,부산 도시철도 1호선,일반역,0,35.26528,129.0925,부산광역시 금정구 중앙대로 지하2019-1 ,부산광역시,금정구
38,부산 도시철도 1호선,일반역,0,35.27333,129.09278,부산광역시 금정구 중앙대로 지하 2107,부산광역시,금정구
39,부산 도시철도 1호선,일반역,0,35.28361,129.095,부산광역시 금정구 중앙대로 2238,부산광역시,금정구
40,부산 도시철도 2호선,일반역,0,35.17,129.17694,부산광역시 해운대구 해운대로 지하 820,부산광역시,해운대구
41,부산 도시철도 2호선,일반역,0,35.16669,129.16617,부산광역시 해운대구 해운대로 지하 730,부산광역시,해운대구
42,부산 도시철도 2호선,일반역,0,35.18183,129.1745,부산광역시 해운대구 해운대로 지하 626,부산광역시,해운대구
43,부산 도시철도 2호선,일반역,0,35.16147,129.14575,부산광역시 해운대구 해운대로 지하 522,부산광역시,해운대구
44,부산 도시철도 2호선,환승역,부산 도시철도 2호선+동해선,35.16919,129.13631,부산광역시 해운대구 해운대로 지하 396,부산광역시,해운대구
45,부산 도시철도 2호선,일반역,0,35.16892,129.12947,부산광역시 해운대구 센텀남대로 지하 76,부산광역시,해운대구
46,부산 도시철도 2호선,일반역,0,35.16722,129.11978,부산광역시 수영구 수영로 지하 769,부산광역시,수영구
47,부산 도시철도 2호선,환승역,부산 도시철도 2호선+부산 도시철도 3호선,35.16778,129.11242,부산광역시 수영구 수영로 지하 677,부산광역시,수영구
48,부산 도시철도 2호선,일반역,0,35.15792,129.11097,부산광역시 수영구 수영로 지하 576,부산광역시,수영구
49,부산 도시철도 2호선,일반역,0,35.14989,129.10883,부산광역시 수영구 수영로 지하 482,부산광역시,수영구
50,부산 도시철도 2호선,일반역,0,35.14217,129.10797,부산광역시 수영구 수영로 지하 410,부산광역시,수영구
51,부산 도시철도 2호선,일반역,0,35.13757,129.10055,부산광역시 남구 수영로 지하 324,부산광역시,남구
52,부산 도시철도 2호선,일반역,0,35.13512,129.09218,부산광역시 남구 수영로 지하 242,부산광역시,남구
53,부산 도시철도 2호선,일반역,0,35.13472,129.08442,부산광역시 남구 수영로 지하 170,부산광역시,남구
54,부산 도시철도 2호선,일반역,0,35.13558,129.07436,부산광역시 남구 수영로 지하 70,부산광역시,남구
55,부산 도시철도 2호선,일반역,0,35.13911,129.06736,부산광역시 남구 전포대로 지하 17,부산광역시,남구
56,부산 도시철도 2호선,일반역,0,35.14583,129.06672,부산광역시 남구 전포대로 지하97 ,부산광역시,남구
57,부산 도시철도 2호선,일반역,0,35.15311,129.06533,부산광역시 부산진구 전포대로 지하 181,부산광역시,부산진구
58,부산 도시철도 2호선,환승역,부산 도시철도 1호선+부산 도시철도 2호선,35.15778,129.05917,부산광역시 부산진구 부전동 573번지,부산광역시,부산진구
59,부산 도시철도 2호선,일반역,0,35.15744,129.05019,부산광역시 부산진구 가야대로 지하 719,부산광역시,부산진구
60,부산 도시철도 2호선,일반역,0,35.15589,129.04283,부산광역시 부산진구 가야대로 지하 650,부산광역시,부산진구
61,부산 도시철도 2호선,일반역,0,35.15411,129.0325,부산광역시 부산진구 가야대로 지하 554,부산광역시,부산진구
62,부산 도시철도 2호선,일반역,0,35.15325,129.02056,부산광역시 부산진구 가야대로 지하 442,부산광역시,부산진구
63,부산 도시철도 2호선,일반역,0,35.15125,129.01228,부산광역시 사상구 가야대로 지하 362-1,부산광역시,사상구
64,부산 도시철도 2호선,일반역,0,35.1505,129.00306,부산광역시 사상구 가야대로 지하 292,부산광역시,사상구
65,부산 도시철도 2호선,일반역,0,35.15553,128.99114,부산광역시 사상구 사상로 지하 93-1,부산광역시,사상구
66,부산 도시철도 2호선,환승역,부산 도시철도 2호선+부산김해경전철,35.16218,128.98467,부산광역시 사상구 사상로 지하 203,부산광역시,사상구
67,부산 도시철도 2호선,일반역,0,35.17378,128.98394,부산광역시 사상구 사상로 지하 320-1,부산광역시,사상구
68,부산 도시철도 2호선,일반역,0,35.18036,128.98561,부산광역시 사상구 사상로 지하 409,부산광역시,사상구
69,부산 도시철도 2호선,일반역,0,35.18967,128.98864,부산광역시 사상구 사상로 지하 498,부산광역시,사상구
70,부산 도시철도 2호선,일반역,0,35.19681,128.99492,부산광역시 북구 백양대로 지하 1026,부산광역시,북구
71,부산 도시철도 2호선,일반역,0,35.20253,128.99931,부산광역시 북구 백양대로 지하 1094,부산광역시,북구
72,부산 도시철도 2호선,환승역,부산 도시철도 2호선+부산 도시철도 3호선,35.21011,129.00533,부산광역시 북구 금곡대로 지하 14,부산광역시,북구
73,부산 도시철도 2호선,일반역,0,35.22336,129.00922,부산광역시 북구 금곡대로 지하160 ,부산광역시,북구
74,부산 도시철도 2호선,일반역,0,35.2345,129.00767,부산광역시 북구 금곡대로 지하 311,부산광역시,북구
75,부산 도시철도 2호선,일반역,0,35.24672,129.01292,부산광역시 북구 금곡대로 지하 440,부산광역시,북구
76,부산 도시철도 2호선,일반역,0,35.25864,129.01242,부산광역시 북구 금곡대로 575,부산광역시,북구
77,부산 도시철도 2호선,일반역,0,35.26733,129.01686,부산광역시 북구 금곡대로 685,부산광역시,북구
78,부산 도시철도 3호선,환승역,부산 도시철도 2호선+부산 도시철도 3호선,35.16775,129.11458,부산광역시 수영구 수영로 677,부산광역시,수영구
79,부산 도시철도 3호선,일반역,0,35.17153,129.10822,부산광역시 수영구 연수로 지하 337,부산광역시,수영구
80,부산 도시철도 3호선,일반역,0,35.1735,129.0955,부산광역시 연제구 연수로 지하 229,부산광역시,연제구
81,부산 도시철도 3호선,일반역,0,35.17681,129.08575,부산광역시 연제구 월드컵대로 지하 23,부산광역시,연제구
82,부산 도시철도 3호선,환승역,부산 도시철도 1호선+부산 도시철도 3호선,35.18614,129.08147,부산광역시 연제구 연산동 1515-1번지,부산광역시,연제구
83,부산 도시철도 3호선,환승역,부산 도시철도 3호선+동해선,35.18858,129.07394,부산광역시 연제구 월드컵대로 지하 209,부산광역시,연제구
84,부산 도시철도 3호선,일반역,0,35.19125,129.0675,부산광역시 연제구 아시아드대로 지하 73,부산광역시,연제구
85,부산 도시철도 3호선,일반역,0,35.199,129.065,부산광역시 동래구 아시아드대로 지하 153,부산광역시,동래구
86,부산 도시철도 3호선,환승역,부산 도시철도 3호선+부산 경량도시철도 4호선,35.2055,129.06806,부산광역시 동래구 아시아드대로 지하 232,부산광역시,동래구
87,부산 도시철도 3호선,일반역,0,35.213,129.0365,부산광역시 북구 만덕대로 지하 291,부산광역시,북구
88,부산 도시철도 3호선,일반역,0,35.21333,129.02392,부산광역시 북구 만덕대로 지하 179,부산광역시,북구
89,부산 도시철도 3호선,일반역,0,35.21197,129.01275,부산광역시 북구 만덕대로 지하 79,부산광역시,북구
90,부산 도시철도 3호선,환승역,부산 도시철도 2호선+부산 도시철도 3호선,35.21039,129.00525,부산광역시 북구 덕천동 327번지,부산광역시,북구
91,부산 도시철도 3호선,일반역,0,35.20544,128.99711,부산광역시 북구 낙동대로 1697,부산광역시,북구
92,부산 도시철도 3호선,일반역,0,35.21125,128.98175,부산광역시 강서구 낙동북로 485,부산광역시,강서구
93,부산 도시철도 3호선,일반역,0,35.21261,128.96894,부산광역시 강서구 낙동북로 371,부산광역시,강서구
94,부산 도시철도 3호선,환승역,부산 도시철도 3호선+부산김해경전철,35.21353,128.95994,부산광역시 강서구 낙동북로 295,부산광역시,강서구
95,부산 경량도시철도 4호선,환승역,부산 도시철도 3호선+부산 경량도시철도 4호선,35.20643,129.06868,부산광역시 동래구 충렬대로 지하 147,부산광역시,동래구
96,부산 경량도시철도 4호선,환승역,부산 도시철도 1호선+부산 경량도시철도 4호선,35.20556,129.07861,부산광역시 동래구 온천2동 1486번지,부산광역시,동래구
97,부산 경량도시철도 4호선,일반역,0,35.20183,129.08378,부산광역시 동래구 충렬대로 지하 223,부산광역시,동래구
98,부산 경량도시철도 4호선,일반역,0,35.20025,129.09078,부산광역시 동래구 충렬대로 지하 285,부산광역시,동래구
99,부산 경량도시철도 4호선,일반역,0,35.19986,129.09764,부산광역시 동래구 반송로 지하 205,부산광역시,동래구
100,부산 경량도시철도 4호선,일반역,0,35.20503,129.10161,부산광역시 동래구 반송로 지하 281,부산광역시,동래구
101,부산 경량도시철도 4호선,일반역,0,35.21331,129.10769,부산광역시 금정구 반송로 지하 387,부산광역시,금정구
102,부산 경량도시철도 4호선,일반역,0,35.21583,129.11517,부산광역시 금정구 반송로 지하 465,부산광역시,금정구
103,부산 경량도시철도 4호선,일반역,0,35.21778,129.12397,부산광역시 해운대구 반송로 550,부산광역시,해운대구
104,부산 경량도시철도 4호선,일반역,0,35.21825,129.13717,부산광역시 해운대구 석대천로 121,부산광역시,해운대구
105,부산 경량도시철도 4호선,일반역,0,35.22578,129.14617,부산광역시 해운대구 반송로 803,부산광역시,해운대구
106,부산 경량도시철도 4호선,일반역,0,35.2325,129.15403,부산광역시 해운대구 반송로 917,부산광역시,해운대구
107,부산 경량도시철도 4호선,일반역,0,35.23603,129.1605,부산광역시 기장군 철마면 반송로 991,부산광역시,기장군
108,부산 경량도시철도 4호선,일반역,0,35.23733,129.17183,부산광역시 기장군 철마면 반송로 1001,부산광역시,기장군
109,부산김해경전철,환승역,부산김해경전철+부산 도시철도 2호선,35.1623018019,128.985940757,부산광역시 사상구 광장로 83,부산광역시,사상구
110,부산김해경전철,일반역,0,35.1632615956,128.9776836014,부산광역시 사상구 광장로 9,부산광역시,사상구
111,부산김해경전철,일반역,0,35.1664020385,128.9548881388,부산광역시 강서구 유통단지1로 57번길 7,부산광역시,강서구
112,부산김해경전철,일반역,0,35.1719068103,128.9485868461,부산광역시 강서구 공항진입로 165,부산광역시,강서구
113,부산김해경전철,일반역,0,35.1820003381,128.9541983025,부산광역시 강서구 경전철로 10,부산광역시,강서구
114,부산김해경전철,일반역,0,35.1961434172,128.9635989995,부산광역시 강서구 경전철로 194,부산광역시,강서구
115,부산김해경전철,환승역,부산김해경전철+부산 도시철도 3호선,35.2130661412,128.9605622452,부산광역시 강서구 낙동북로 294,부산광역시,강서구
116,부산김해경전철,일반역,0,35.2142567092,128.950884893,부산광역시 강서구 낙동북로 203,부산광역시,강서구
117,부산김해경전철,일반역,0,35.2176572092,128.9384172391,부산광역시 강서구 낙동북로 82,부산광역시,강서구
118,인천국제공항선,환승역,서울 도시철도 1호선+서울 도시철도 4호선+경의선,37.5491178426399,126.970464251575,서울특별시 용산구 청파로 378,서울특별시,용산구
119,인천국제공항선,환승역,서울 도시철도 5호선+서울 도시철도 6호선+경의중앙선,37.5428405531108,126.951330074129,서울특별시 마포구 마포대로 92,서울특별시,마포구
120,인천국제공항선,환승역,서울 도시철도 2호선+경의중앙선,37.55774102785,126.926493919073,서울특별시 마포구 양화로 188,서울특별시,마포구
121,인천국제공항선,환승역,서울 도시철도 6호선+경의중앙선,37.57682543557,126.89902052373,서울특별시 마포구 성암로 184,서울특별시,마포구
122,인천국제공항선,환승역,서울 도시철도 9호선,37.5658191364034,126.827635784835,서울특별시 강서구 마곡중앙로 지하 135,서울특별시,강서구
123,인천국제공항선,환승역,서울 도시철도 5호선+서울 도시철도 9호선+김포도시철도,37.5621165172316,126.801544248079,서울특별시 강서구 하늘길 77,서울특별시,강서구
124,우이신설선,도시철도 일반역,0,0.0,0.0,서울특별시 강북구 삼양로 지하 676,서울특별시,강북구
125,우이신설선,도시철도 일반역,0,0.0,0.0,서울특별시 강북구 삼양로 595,서울특별시,강북구
126,우이신설선,도시철도 일반역,0,0.0,0.0,서울특별시 강북구 삼양로 519,서울특별시,강북구
127,우이신설선,도시철도 일반역,0,0.0,0.0,서울특별시 강북구 삼양로 426,서울특별시,강북구
128,우이신설선,도시철도 일반역,0,0.0,0.0,서울특별시 강북구 삼양로 341,서울특별시,강북구
129,우이신설선,도시철도 일반역,0,0.0,0.0,서울특별시 강북구 삼양로 지하 259,서울특별시,강북구
130,우이신설선,도시철도 일반역,0,0.0,0.0,서울특별시 강북구 삼양로 197,서울특별시,강북구
131,우이신설선,도시철도 일반역,0,0.0,0.0,서울특별시 강북구 솔샘로 지하 189,서울특별시,강북구
132,우이신설선,도시철도 일반역,0,0.0,0.0,서울특별시 성북구 보국문로 지하 88,서울특별시,성북구
133,우이신설선,도시철도 일반역,0,0.0,0.0,서울특별시 성북구 아리랑로 지하 122,서울특별시,성북구
134,우이신설선,도시철도 환승역,수도권 광역철도 4호선,0.0,0.0,서울특별시 성북구 동선동1가 116-1,서울특별시,성북구
135,우이신설선,도시철도 환승역,수도권 도시철도 6호선,0.0,0.0,서울특별시 성북구 보문동1가 127-6,서울특별시,성북구
136,우이신설선,도시철도 환승역,수도권 광역철도 1호선,0.0,0.0,서울특별시 동대문구 신설동 132-259,서울특별시,동대문구
137,신분당선,도시철도 환승역,수도권 광역철도 신분당선,127.019760916726,37.5161252633129,서울특별시 강남구 강남대로 620-2,서울특별시,강남구
138,신분당선,도시철도 환승역,수도권 광역철도 신분당선,127.021365807131,37.5111153846379,서울특별시 강남구 강남대로 492-2,서울특별시,강남구
139,신분당선,도시철도 환승역,수도권 광역철도 신분당선,127.024530640799,37.504555429592,서울특별시 강남구 강남대로 302-2,서울특별시,강남구
140,신분당선,도시철도 환승역,수도권 광역철도 신분당선,127.02787893753,37.4973854397871,서울특별시 강남구 강남대로 지하 396,서울특별시,강남구
141,신분당선,도시철도 일반역,0,127.038420263319,37.4709638768813,서울특별시 서초구 매헌로 지하 116,서울특별시,서초구
142,신분당선,도시철도 일반역,0,127.054339616958,37.4487148450701,서울특별시 서초구 청계산로 지하 179,서울특별시,서초구
143,수도권 경량도시철도 신림선,도시철도 환승역,수도권  도시철도 9호선,37.517219937,126.929403964,서울특별시 영등포구 의사당대로 지하166 (여의도동),서울특별시,영등포구
144,수도권 경량도시철도 신림선,도시철도 환승역,수도권  광역철도 1호선,37.512840166,126.925316781,서울특별시 영등포구 여의대방로 300 (신길동),서울특별시,영등포구
145,수도권 경량도시철도 신림선,도시철도 일반역,0,37.50604687,126.922783404,서울특별시 동작구 여의대방로 지하218 (대방동),서울특별시,동작구
146,수도권 경량도시철도 신림선,도시철도 환승역,수도권  도시철도 7호선,37.500312709,126.920485864,서울특별시 동작구 상도로 지하2 (대방동),서울특별시,동작구
147,수도권 경량도시철도 신림선,도시철도 일반역,0,37.495225405,126.918258811,서울특별시 동작구 여의대방로20길 지하11 (신대방동),서울특별시,동작구
148,수도권 경량도시철도 신림선,도시철도 일반역,0,37.493071762,126.923886086,서울특별시 동작구 보라매로5길 지하24 (신대방동),서울특별시,동작구
149,수도권 경량도시철도 신림선,도시철도 일반역,0,37.490039105,126.927568759,서울특별시 관악구 보라매로 6 (봉천동),서울특별시,관악구
150,수도권 경량도시철도 신림선,도시철도 환승역,수도권  도시철도 2호선,37.484890755,126.92960992,서울특별시 관악구 남부순환로 지하1614 (신림동),서울특별시,관악구
151,수도권 경량도시철도 신림선,도시철도 일반역,0,37.47827336,126.933228219,서울특별시 관악구 신림로 258 (신림동),서울특별시,관악구
152,수도권 경량도시철도 신림선,도시철도 일반역,0,37.47204068,126.933976556,서울특별시 관악구 신림로 144 (신림동),서울특별시,관악구
153,수도권 경량도시철도 신림선,도시철도 일반역,0,37.46916896,126.944954837,서울특별시 관악구 신림로 23 (신림동),서울특별시,관악구
154,1호선,도시철도 환승역,수도권  광역철도 분당+수도권  광역철도 경춘+수도권  광역철도 경의중앙,0.0,0.0,서울특별시 동대문구 왕산로 지하205(전농동),서울특별시,동대문구
155,1호선,도시철도 일반역,0,0.0,0.0,서울특별시 동대문구 왕산로 지하93(제기동),서울특별시,동대문구
156,1호선,도시철도 환승역,수도권  도시철도 2호선,0.0,0.0,서울특별시 동대문구 왕산로 지하1(신설동),서울특별시,동대문구
157,1호선,도시철도 환승역,수도권  도시철도 6호선,0.0,0.0,서울특별시 종로구 종로 359(숭인동),서울특별시,종로구
158,1호선,도시철도 환승역,수도권  광역철도 4호선,0.0,0.0,서울특별시 종로구 종로 지하302(창신동),서울특별시,종로구
159,1호선,도시철도 일반역,0,0.0,0.0,서울특별시 종로구 종로 지하216(종로5가),서울특별시,종로구
160,1호선,도시철도 환승역,수도권  광역철도 3호선+수도권  도시철도 5호선,0.0,0.0,서울특별시 종로구 종로 지하129(종로3가),서울특별시,종로구
161,1호선,도시철도 일반역,0,0.0,0.0,서울특별시 종로구 종로 지하55(종로1가),서울특별시,종로구
162,1호선,도시철도 환승역,수도권  도시철도 2호선,0.0,0.0,서울특별시 중구 세종대로 지하101(정동),서울특별시,중구
163,1호선,도시철도 환승역,수도권  광역철도 4호선+수도권  광역철도 경의중앙+수도권  광역철도 공항,0.0,0.0,서울특별시 중구 세종대로 지하2(남대문로 5가),서울특별시,중구
164,2호선,도시철도 환승역,수도권  광역철도 1호선,0.0,0.0,서울특별시 중구 서소문로 지하127(서소문동),서울특별시,중구
165,2호선,도시철도 일반역,0,0.0,0.0,서울특별시 중구 을지로 지하42(을지로1가),서울특별시,중구
166,2호선,도시철도 환승역,수도권  광역철도 3호선,0.0,0.0,서울특별시 중구 을지로 지하106(을지로3가),서울특별시,중구
167,2호선,도시철도 환승역,수도권  도시철도 5호선,0.0,0.0,서울특별시 중구 을지로 지하178(을지로4가),서울특별시,중구
168,2호선,도시철도 환승역,수도권  광역철도 4호선+수도권  도시철도 5호선,0.0,0.0,서울특별시 중구 을지로 지하279(을지로7가),서울특별시,중구
169,2호선,도시철도 환승역,수도권  도시철도 6호선,0.0,0.0,서울특별시 중구 퇴계로 지하431-1(신당동),서울특별시,중구
170,2호선,도시철도 일반역,0,0.0,0.0,서울특별시 성동구 왕십리로 지하374(하왕십리동),서울특별시,성동구
171,2호선,도시철도 환승역,수도권  도시철도 5호선+수도권 광역철도 분당+수도권 광역철도 경의중앙,0.0,0.0,서울특별시 성동구 왕십리로 지하300(행당동),서울특별시,성동구
172,2호선,도시철도 일반역,0,0.0,0.0,서울특별시 성동구 왕십리로 206(행당동),서울특별시,성동구
173,2호선,도시철도 일반역,0,0.0,0.0,서울특별시 성동구 아차산로 18(성수동1가),서울특별시,성동구
174,2호선,도시철도 일반역,0,0.0,0.0,서울특별시 성동구 아차산로 100(성수동2가),서울특별시,성동구
175,2호선,도시철도 환승역,수도권  도시철도 7호선,0.0,0.0,서울특별시 광진구 아차산로 243(화양동),서울특별시,광진구
176,2호선,도시철도 일반역,0,0.0,0.0,서울특별시 광진구 아차산로 384-1(구의동),서울특별시,광진구
177,2호선,도시철도 일반역,0,0.0,0.0,서울특별시 광진구 강변역로 53(구의동),서울특별시,광진구
178,2호선,도시철도 일반역,0,0.0,0.0,서울특별시 송파구 오금로 20(신천동),서울특별시,송파구
179,2호선,도시철도 환승역,수도권  도시철도 8호선,0.0,0.0,서울특별시 송파구 올림픽로 지하265(신천동),서울특별시,송파구
180,2호선,도시철도 일반역,0,0.0,0.0,서울특별시 송파구 올림픽로 지하140(잠실동),서울특별시,송파구
181,2호선,도시철도 환승역,수도권  도시철도 9호선,0.0,0.0,서울특별시 송파구 올림픽로 지하23(잠실동),서울특별시,송파구
182,2호선,도시철도 일반역,0,0.0,0.0,서울특별시 강남구 테헤란로 지하538(삼성동),서울특별시,강남구
183,2호선,도시철도 환승역,수도권  광역철도 분당,0.0,0.0,서울특별시 강남구 테헤란로 지하340(삼성동),서울특별시,강남구
184,2호선,도시철도 일반역,0,0.0,0.0,서울특별시 강남구 테헤란로 지하156(역삼동),서울특별시,강남구
185,2호선,도시철도 환승역,수도권  광역철도 신분당선,0.0,0.0,서울특별시 강남구 강남대로 지하396(역삼동),서울특별시,강남구
186,2호선,도시철도 환승역,수도권  광역철도 3호선,0.0,0.0,서울특별시 서초구 서초대로 지하294(서초동),서울특별시,서초구
187,2호선,도시철도 일반역,0,0.0,0.0,서울특별시 서초구 서초대로 지하233(서초동),서울특별시,서초구
188,2호선,도시철도 일반역,0,0.0,0.0,서울특별시 서초구 방배로 지하80(방배동),서울특별시,서초구
189,2호선,도시철도 환승역,수도권  광역철도 4호선,0.0,0.0,서울특별시 동작구 남부순환로 지하2089(사당동),서울특별시,동작구
190,2호선,도시철도 일반역,0,0.0,0.0,서울특별시 관악구 남부순환로 지하1928(봉천동),서울특별시,관악구
191,2호선,도시철도 일반역,0,0.0,0.0,서울특별시 관악구 남부순환로 지하1822(봉천동),서울특별시,관악구
192,2호선,도시철도 일반역,0,0.0,0.0,서울특별시 관악구 남부순환로 지하1721(봉천동),서울특별시,관악구
193,2호선,도시철도 일반역,0,0.0,0.0,서울특별시 관악구 남부순환로 지하1614(신림동),서울특별시,관악구
194,2호선,도시철도 일반역,0,0.0,0.0,서울특별시 동작구 대림로 2(신대방동),서울특별시,동작구
195,2호선,도시철도 일반역,0,0.0,0.0,서울특별시 구로구 도림천로 477(구로동),서울특별시,구로구
196,2호선,도시철도 환승역,수도권  도시철도 7호선,0.0,0.0,서울특별시 구로구 도림천로 351(구로동),서울특별시,구로구
197,2호선,도시철도 환승역,수도권  광역철도 1호선+수도권 도시철도 2호선,0.0,0.0,서울특별시 구로구 새말로 지하 117-21(신도림동),서울특별시,구로구
198,2호선,도시철도 일반역,0,0.0,0.0,서울특별시 영등포구 당산로 지하28(문래동3가),서울특별시,영등포구
199,2호선,도시철도 환승역,수도권  도시철도 5호선,0.0,0.0,서울특별시 영등포구 당산로 지하121(당산동3가),서울특별시,영등포구
200,2호선,도시철도 환승역,수도권  도시철도 9호선,0.0,0.0,서울특별시 영등포구 당산로 229(당산동6가),서울특별시,영등포구
201,2호선,도시철도 환승역,수도권  도시철도 6호선,0.0,0.0,서울특별시 마포구 양화로 지하55(서교동),서울특별시,마포구
202,2호선,도시철도 환승역,수도권  광역철도 공항+수도권 광역철도 경의중앙,0.0,0.0,서울특별시 마포구 양화로 지하160(동교동),서울특별시,마포구
203,2호선,도시철도 일반역,0,0.0,0.0,서울특별시 마포구 신촌로 지하90(노고산동),서울특별시,마포구
204,2호선,도시철도 일반역,0,0.0,0.0,서울특별시 마포구 신촌로 지하180(염리동),서울특별시,마포구
205,2호선,도시철도 일반역,0,0.0,0.0,서울특별시 마포구 신촌로 지하270(아현동),서울특별시,마포구
206,2호선,도시철도 환승역,수도권  도시철도 5호선,0.0,0.0,서울특별시 서대문구 서소문로 지하17(충정로3가),서울특별시,서대문구
207,2호선,도시철도 일반역,0,0.0,0.0,서울특별시 성동구 용답길 86(용답동),서울특별시,성동구
208,2호선,도시철도 일반역,0,0.0,0.0,서울특별시 성동구 천호대로 232(용답동),서울특별시,성동구
209,2호선,도시철도 일반역,0,0.0,0.0,서울특별시 동대문구 천호대로 지하129(용두동),서울특별시,동대문구
210,2호선,도시철도 일반역,수도권  도시철도 2호선,0.0,0.0,서울특별시 동대문구 왕산로 지하 1(신설동),서울특별시,동대문구
211,2호선,도시철도 일반역,0,0.0,0.0,서울특별시 구로구 경인로67길 160(신도림동),서울특별시,구로구
212,2호선,도시철도 일반역,0,0.0,0.0,서울특별시 양천구 목동로3길 지하33(신정동),서울특별시,양천구
213,2호선,도시철도 일반역,0,0.0,0.0,서울특별시 양천구 중앙로 지하261(신정동),서울특별시,양천구
214,3호선,도시철도 일반역,0,0.0,0.0,서울특별시 은평구 진관2로 지하15-25 (진관동),서울특별시,은평구
215,3호선,도시철도 환승역,수도권  도시철도 6호선,0.0,0.0,서울특별시 은평구 통일로 지하849(갈현동),서울특별시,은평구
216,3호선,도시철도 환승역,수도권  도시철도 6호선,0.0,0.0,서울특별시 은평구 통일로 지하723-1(대조동),서울특별시,은평구
217,3호선,도시철도 일반역,0,0.0,0.0,서울특별시 은평구 통일로 지하602-1(녹번동),서울특별시,은평구
218,3호선,도시철도 일반역,0,0.0,0.0,서울특별시 서대문구 통일로 지하440-1(홍제동),서울특별시,서대문구
219,3호선,도시철도 일반역,0,0.0,0.0,서울특별시 서대문구 통일로 지하361(홍제동),서울특별시,서대문구
220,3호선,도시철도 일반역,0,0.0,0.0,서울특별시 서대문구 통일로 지하247(현저동),서울특별시,서대문구
221,3호선,도시철도 일반역,0,0.0,0.0,서울특별시 종로구 사직로 지하130(적선동),서울특별시,종로구
222,3호선,도시철도 일반역,0,0.0,0.0,서울특별시 종로구 율곡로 지하62(안국동),서울특별시,종로구
223,3호선,도시철도 환승역,수도권  도시철도 5호선+수도권 광역철도 1호선,0.0,0.0,서울특별시 종로구 돈화문로 지하30(묘동),서울특별시,종로구
224,3호선,도시철도 환승역,수도권  도시철도 2호선,0.0,0.0,서울특별시 중구 을지로 지하129(을지로3가),서울특별시,중구
225,3호선,도시철도 환승역,수도권  광역철도 4호선,0.0,0.0,서울특별시 중구 퇴계로 지하214(필동2가),서울특별시,중구
226,3호선,도시철도 일반역,0,0.0,0.0,서울특별시 중구 동호로 지하256(장충동2가),서울특별시,중구
227,3호선,도시철도 환승역,수도권  도시철도 6호선,0.0,0.0,서울특별시 중구 다산로 지하122(신당동),서울특별시,중구
228,3호선,도시철도 일반역,0,0.0,0.0,서울특별시 성동구 동호로 지하104(금호동4가),서울특별시,성동구
229,3호선,도시철도 환승역,수도권  광역철도 경의중앙,0.0,0.0,서울특별시 성동구 동호로 21(옥수동),서울특별시,성동구
230,3호선,도시철도 일반역,0,0.0,0.0,서울특별시 강남구 압구정로 지하172(신사동),서울특별시,강남구
231,3호선,도시철도 일반역,0,0.0,0.0,서울특별시 강남구 도산대로 지하102(신사동),서울특별시,강남구
232,3호선,도시철도 일반역,0,0.0,0.0,서울특별시 서초구 잠원로4길 지하46(잠원동),서울특별시,서초구
233,3호선,도시철도 환승역,수도권  도시철도 7호선+수도권  도시철도 9호선,0.0,0.0,서울특별시 서초구 신반포로 지하188(반포동),서울특별시,서초구
234,3호선,도시철도 환승역,수도권  도시철도 2호선,0.0,0.0,서울특별시 서초구 서초대로 지하294(서초동),서울특별시,서초구
235,3호선,도시철도 일반역,0,0.0,0.0,서울특별시 서초구 서초중앙로 지하31(서초동),서울특별시,서초구
236,3호선,도시철도 환승역,수도권  광역철도 신분당선,0.0,0.0,서울특별시 서초구 남부순환로 지하2585(서초동),서울특별시,서초구
237,3호선,도시철도 일반역,0,0.0,0.0,서울특별시 강남구 남부순환로 지하2744(도곡동),서울특별시,강남구
238,3호선,도시철도 환승역,수도권  광역철도 분당,0.0,0.0,서울특별시 강남구 남부순환로 지하2814(도곡동),서울특별시,강남구
239,3호선,도시철도 일반역,0,0.0,0.0,서울특별시 강남구 남부순환로 지하2952(대치동),서울특별시,강남구
240,3호선,도시철도 일반역,0,0.0,0.0,서울특별시 강남구 남부순환로 지하3104(대치동),서울특별시,강남구
241,3호선,도시철도 일반역,0,0.0,0.0,서울특별시 강남구 일원로 지하2(일원동),서울특별시,강남구
242,3호선,도시철도 일반역,0,0.0,0.0,서울특별시 강남구 일원로 지하121(일원동),서울특별시,강남구
243,3호선,도시철도 환승역,수도권  광역철도 분당,0.0,0.0,서울특별시 강남구 광평로 지하270(수서동),서울특별시,강남구
244,3호선,도시철도 환승역,수도권  도시철도 8호선,0.0,0.0,서울특별시 송파구 송파대로 지하257(가락동),서울특별시,송파구
245,3호선,도시철도 일반역,0,0.0,0.0,서울특별시 송파구 중대로 지하149(가락동),서울특별시,송파구
246,3호선,도시철도 환승역,수도권  도시철도 5호선,0.0,0.0,서울특별시 송파구 오금로 지하321(오금동),서울특별시,송파구
247,4호선,도시철도 일반역,0,0.0,0.0,서울특별시 노원구 상계로 305(상계동),서울특별시,노원구
248,4호선,도시철도 일반역,0,0.0,0.0,서울특별시 노원구 상계로 182(상계동),서울특별시,노원구
249,4호선,도시철도 환승역,수도권  도시철도 7호선,0.0,0.0,서울특별시 노원구 상계로 69-1(상계동),서울특별시,노원구
250,4호선,도시철도 환승역,수도권  광역철도 1호선,0.0,0.0,서울특별시 도봉구 마들로11길 77(창동),서울특별시,도봉구
251,4호선,도시철도 일반역,0,0.0,0.0,서울특별시 도봉구 도봉로 지하 486-1(창동),서울특별시,도봉구
252,4호선,도시철도 일반역,0,0.0,0.0,서울특별시 강북구 도봉로 지하338(수유동),서울특별시,강북구
253,4호선,도시철도 일반역,0,0.0,0.0,서울특별시 강북구 도봉로 지하198(미아동),서울특별시,강북구
254,4호선,도시철도 일반역,0,0.0,0.0,서울특별시 강북구 도봉로 지하50(미아동),서울특별시,강북구
255,4호선,도시철도 일반역,0,0.0,0.0,서울특별시 성북구 동소문로 지하248(길음동),서울특별시,성북구
256,4호선,도시철도 일반역,수도권  광역철도 4호선,0.0,0.0,서울특별시 성북구 동소문로 지하102(동선동4가),서울특별시,성북구
257,4호선,도시철도 일반역,0,0.0,0.0,서울특별시 성북구 삼선교로 지하1(삼선동1가),서울특별시,성북구
258,4호선,도시철도 일반역,0,0.0,0.0,서울특별시 종로구 대학로 지하120(명륜4가),서울특별시,종로구
259,4호선,도시철도 환승역,수도권  광역철도 1호선,0.0,0.0,서울특별시 종로구 율곡로 지하308(종로6가),서울특별시,종로구
260,4호선,도시철도 환승역,수도권  도시철도 2호선+수도권  도시철도 5호선,0.0,0.0,서울특별시 중구 장충단로 지하230(광희동2가),서울특별시,중구
261,4호선,도시철도 환승역,수도권  광역철도 3호선,0.0,0.0,서울특별시 중구 퇴계로 지하214(필동2가),서울특별시,중구
262,4호선,도시철도 일반역,0,0.0,0.0,서울특별시 중구 퇴계로 지하126(충무로2가),서울특별시,중구
263,4호선,도시철도 일반역,0,0.0,0.0,서울특별시 중구 퇴계로 지하54(남창동),서울특별시,중구
264,4호선,도시철도 환승역,수도권  광역철도 1호선+수도권 광역철도 경의중앙+수도권 광역철도 공항,0.0,0.0,서울특별시 용산구 한강대로 지하392(동자동),서울특별시,용산구
265,4호선,도시철도 일반역,0,0.0,0.0,서울특별시 용산구 한강대로 지하306(갈월동),서울특별시,용산구
266,4호선,도시철도 환승역,수도권  도시철도 6호선,0.0,0.0,서울특별시 용산구 한강대로 지하180(한강로1가),서울특별시,용산구
267,4호선,도시철도 일반역,0,0.0,0.0,서울특별시 용산구 한강대로 지하112(한강로2가),서울특별시,용산구
268,4호선,도시철도 환승역,수도권  광역철도 경의중앙,0.0,0.0,서울특별시 용산구 서빙고로 지하83(용산동5가),서울특별시,용산구
269,4호선,도시철도 환승역,수도권  도시철도 9호선,0.0,0.0,서울특별시 동작구 현충로 257(동작동),서울특별시,동작구
270,4호선,도시철도 환승역,수도권  도시철도 7호선,0.0,0.0,서울특별시 동작구 동작대로 지하117(사당동),서울특별시,동작구
271,4호선,도시철도 환승역,수도권  도시철도 2호선,0.0,0.0,서울특별시 동작구  동작대로 지하3(사당동),서울특별시,동작구
272,4호선,도시철도 일반역,0,0.0,0.0,서울특별시 서초구 과천대로 지하816(방배동),서울특별시,서초구
273,5호선,도시철도 일반역,0,0.0,0.0,서울특별시 강서구 금낭화로 지하132(방화동),서울특별시,강서구
274,5호선,도시철도 일반역,0,0.0,0.0,서울특별시 강서구 양천로 22(방화동),서울특별시,강서구
275,5호선,도시철도 환승역,수도권 도시철도 9호선+수도권 광역철도 공항+김포도시철도+서해선,0.0,0.0,서울특별시 강서구 하늘길 지하77(방화동),서울특별시,강서구
276,5호선,도시철도 일반역,0,0.0,0.0,서울특별시 강서구 공항대로 지하33(공항동),서울특별시,강서구
277,5호선,도시철도 일반역,0,0.0,0.0,서울특별시 강서구 공항대로 지하163(마곡동),서울특별시,강서구
278,5호선,도시철도 일반역,0,0.0,0.0,서울특별시 강서구 공항대로 지하267(마곡동),서울특별시,강서구
279,5호선,도시철도 일반역,0,0.0,0.0,서울특별시 강서구 강서로 지하262(화곡동),서울특별시,강서구
280,5호선,도시철도 일반역,0,0.0,0.0,서울특별시 강서구 화곡로 지하168(화곡동),서울특별시,강서구
281,5호선,도시철도 환승역,수도권  도시철도 2호선,0.0,0.0,서울특별시 강서구 강서로 지하54(화곡동),서울특별시,강서구
282,5호선,도시철도 일반역,0,0.0,0.0,서울특별시 양천구 오목로 지하179(신정동),서울특별시,양천구
283,5호선,도시철도 일반역,0,0.0,0.0,서울특별시 양천구 오목로 지하245(목동),서울특별시,양천구
284,5호선,도시철도 일반역,0,0.0,0.0,서울특별시 양천구 오목로 지하342(목동),서울특별시,양천구
285,5호선,도시철도 일반역,0,0.0,0.0,서울특별시 영등포구 양산로 지하21(양평동2가),서울특별시,영등포구
286,5호선,도시철도 환승역,수도권  도시철도 2호선,0.0,0.0,서울특별시 영등포구 양산로 지하116(당산동3가),서울특별시,영등포구
287,5호선,도시철도 일반역,0,0.0,0.0,서울특별시 영등포구 양산로 지하200(영등포동5가),서울특별시,영등포구
288,5호선,도시철도 환승역,수도권  광역철도 1호선,0.0,0.0,서울특별시 영등포구 경인로114가길 지하9(영등포동1가),서울특별시,영등포구
289,5호선,도시철도 환승역,수도권  도시철도 9호선,0.0,0.0,서울특별시 영등포구 여의나루로 지하40(여의도동),서울특별시,영등포구
290,5호선,도시철도 일반역,0,0.0,0.0,서울특별시 영등포구 여의동로 지하343(여의도동),서울특별시,영등포구
291,5호선,도시철도 일반역,0,0.0,0.0,서울특별시 마포구 마포대로 지하33(도화동),서울특별시,마포구
292,5호선,도시철도 환승역,수도권  도시철도 6호선,0.0,0.0,서울특별시 마포구 마포대로 지하100(공덕동),서울특별시,마포구
293,5호선,도시철도 일반역,0,0.0,0.0,서울특별시 마포구 마포대로 지하210(아현동),서울특별시,마포구
294,5호선,도시철도 환승역,수도권  도시철도 2호선,0.0,0.0,서울특별시 서대문구 충정로 지하 28-1(충정로3가),서울특별시,서대문구
295,5호선,도시철도 일반역,0,0.0,0.0,서울특별시 종로구 통일로 지하126(평동),서울특별시,종로구
296,5호선,도시철도 일반역,0,0.0,0.0,서울특별시 종로구 세종대로 지하172(세종로),서울특별시,종로구
297,5호선,도시철도 환승역,수도권  광역철도 3호선+수도권 광역철도 1호선,0.0,0.0,서울특별시 종로구 돈화문로11길 지하 26(돈의동),서울특별시,종로구
298,5호선,도시철도 환승역,수도권  도시철도 2호선,0.0,0.0,서울특별시 중구 창경궁로 지하51(주교동),서울특별시,중구
299,5호선,도시철도 환승역,수도권  도시철도 2호선+수도권 광역철도 4호선,0.0,0.0,서울특별시 중구 마른내로 지하162(광희동1가),서울특별시,중구
300,5호선,도시철도 환승역,수도권  도시철도 6호선,0.0,0.0,서울특별시 중구 청구로 지하77(신당동),서울특별시,중구
301,5호선,도시철도 일반역,0,0.0,0.0,서울특별시 성동구 금호로 지하154(금호동2가),서울특별시,성동구
302,5호선,도시철도 일반역,0,0.0,0.0,서울특별시 성동구 행당로 지하89(행당동),서울특별시,성동구
303,5호선,도시철도 환승역,수도권  도시철도 2호선+수도권 광역철도 분당+수도권 광역철도 경의중앙,0.0,0.0,서울특별시 성동구 왕십리로 지하300(행당동),서울특별시,성동구
304,5호선,도시철도 일반역,0,0.0,0.0,서울특별시 성동구 마장로 지하296(마장동),서울특별시,성동구
305,5호선,도시철도 일반역,0,0.0,0.0,서울특별시 성동구 천호대로 지하300(용답동),서울특별시,성동구
306,5호선,도시철도 일반역,0,0.0,0.0,서울특별시 동대문구 천호대로 지하405(장안동),서울특별시,동대문구
307,5호선,도시철도 환승역,수도권  도시철도 7호선,0.0,0.0,서울특별시 광진구 천호대로 지하550(능동),서울특별시,광진구
308,5호선,도시철도 일반역,0,0.0,0.0,서울특별시 광진구 천호대로 지하657(능동),서울특별시,광진구
309,5호선,도시철도 일반역,0,0.0,0.0,서울특별시 광진구 아차산로 지하571(광장동),서울특별시,광진구
310,5호선,도시철도 환승역,수도권  도시철도 8호선,0.0,0.0,서울특별시 강동구 천호대로 지하997(천호동),서울특별시,강동구
311,5호선,도시철도 일반역,0,0.0,0.0,서울특별시 강동구 천호대로 지하1097(천호동),서울특별시,강동구
312,5호선,도시철도 일반역,0,0.0,0.0,서울특별시 강동구 양재대로 지하1480(길동),서울특별시,강동구
313,5호선,도시철도 일반역,0,0.0,0.0,서울특별시 강동구 양재대로 지하1572(명일동),서울특별시,강동구
314,5호선,도시철도 일반역,0,0.0,0.0,서울특별시 강동구 양재대로 지하1632(명일동),서울특별시,강동구
315,5호선,도시철도 일반역,0,0.0,0.0,서울특별시 강동구 고덕로 지하253(고덕동),서울특별시,강동구
316,5호선,도시철도 일반역,0,0.0,0.0,서울특별시 강동구 고덕로 지하359(상일동),서울특별시,강동구
317,5호선,도시철도 일반역,0,0.0,0.0,서울특별시 강동구 양재대로 지하1369(둔촌동),서울특별시,강동구
318,5호선,도시철도 일반역,0,0.0,0.0,서울특별시 송파구 양재대로 지하1233(방이동),서울특별시,송파구
319,5호선,도시철도 일반역,0,0.0,0.0,서울특별시 송파구 양재대로 지하1127(방이동),서울특별시,송파구
320,5호선,도시철도 환승역,수도권  광역철도 3호선,0.0,0.0,서울특별시 송파구 오금로 지하321(오금동),서울특별시,송파구
321,5호선,도시철도 일반역,0,0.0,0.0,서울특별시 송파구 오금로 지하402(가락동),서울특별시,송파구
322,5호선,도시철도 일반역,0,0.0,0.0,서울특별시 송파구 오금로 지하499(거여동),서울특별시,송파구
323,5호선,도시철도 일반역,0,0.0,0.0,서울특별시 강동구 고덕로 지하456(강일동),서울특별시,강동구
324,5호선,도시철도 일반역,0,0.0,0.0,서울특별시 송파구 마천로57길 지하7(마천동),서울특별시,송파구
325,6호선,도시철도 일반역,0,0.0,0.0,서울특별시 은평구 증산로 지하477(신사동),서울특별시,은평구
326,6호선,도시철도 일반역,0,0.0,0.0,서울특별시 은평구 서오릉로 지하63(녹번동),서울특별시,은평구
327,6호선,도시철도 환승역,수도권  광역철도 3호선,0.0,0.0,서울특별시 은평구 통일로 지하723-1(대조동),서울특별시,은평구
328,6호선,도시철도 일반역,0,0.0,0.0,서울특별시 은평구 불광로 지하129-1(불광동),서울특별시,은평구
329,6호선,도시철도 환승역,수도권  광역철도 3호선,0.0,0.0,서울특별시 은평구 통일로 지하849(갈현동),서울특별시,은평구
330,6호선,도시철도 일반역,0,0.0,0.0,서울특별시 은평구 연서로 지하137-1(구산동),서울특별시,은평구
331,6호선,도시철도 일반역,0,0.0,0.0,서울특별시 은평구 증산로 지하400(신사동),서울특별시,은평구
332,6호선,도시철도 일반역,0,0.0,0.0,서울특별시 은평구 증산로 지하306(증산동),서울특별시,은평구
333,6호선,도시철도 환승역,수도권  광역철도 경의중앙+수도권 광역철도 공항,0.0,0.0,서울특별시 은평구 수색로 지하175(증산동),서울특별시,은평구
334,6호선,도시철도 일반역,0,0.0,0.0,서울특별시 마포구 월드컵로 지하240(성산동),서울특별시,마포구
335,6호선,도시철도 일반역,0,0.0,0.0,서울특별시 마포구 월드컵로 지하190(성산동),서울특별시,마포구
336,6호선,도시철도 일반역,0,0.0,0.0,서울특별시 마포구 월드컵로 지하77(망원동),서울특별시,마포구
337,6호선,도시철도 환승역,수도권  도시철도 2호선,0.0,0.0,서울특별시 마포구 양화로 지하45(합정동),서울특별시,마포구
338,6호선,도시철도 일반역,0,0.0,0.0,서울특별시 마포구 독막로 지하85(상수동),서울특별시,마포구
339,6호선,도시철도 일반역,0,0.0,0.0,서울특별시 마포구 독막로 지하165(창전동),서울특별시,마포구
340,6호선,도시철도 일반역,0,0.0,0.0,서울특별시 마포구 대흥로 지하85(대흥동),서울특별시,마포구
341,6호선,도시철도 환승역,수도권  도시철도 5호선,0.0,0.0,서울특별시 마포구 백범로 지하200(공덕동),서울특별시,마포구
342,6호선,도시철도 환승역,수도권  광역철도 경의중앙,0.0,0.0,서울특별시 용산구 백범로 지하287(효창동),서울특별시,용산구
343,6호선,도시철도 환승역,수도권  광역철도 4호선,0.0,0.0,서울특별시 용산구 한강대로 지하185(한강로1가),서울특별시,용산구
344,6호선,도시철도 일반역,0,0.0,0.0,서울특별시 용산구 녹사평대로 지하195(용산동4가),서울특별시,용산구
345,6호선,도시철도 일반역,0,0.0,0.0,서울특별시 용산구 이태원로 지하177(이태원동),서울특별시,용산구
346,6호선,도시철도 일반역,0,0.0,0.0,서울특별시 용산구 이태원로 지하287(한남동),서울특별시,용산구
347,6호선,도시철도 일반역,0,0.0,0.0,서울특별시 중구 다산로 지하38(신당동),서울특별시,중구
348,6호선,도시철도 환승역,수도권  광역철도 3호선,0.0,0.0,서울특별시 중구 다산로 지하115(신당동),서울특별시,중구
349,6호선,도시철도 환승역,수도권  도시철도 5호선,0.0,0.0,서울특별시 중구 청구로 지하77(신당동),서울특별시,중구
350,6호선,도시철도 환승역,수도권  도시철도 2호선,0.0,0.0,서울특별시 중구 다산로 지하260(흥인동),서울특별시,중구
351,6호선,도시철도 환승역,수도권  광역철도 1호선,0.0,0.0,서울특별시 종로구 지봉로 지하24(숭인동),서울특별시,종로구
352,6호선,도시철도 일반역,0,0.0,0.0,서울특별시 종로구 지봉로 지하112(창신동),서울특별시,종로구
353,6호선,도시철도 일반역,수도권  도시철도 6호선,0.0,0.0,서울특별시 성북구 보문로 지하116(보문동1가),서울특별시,성북구
354,6호선,도시철도 일반역,0,0.0,0.0,서울특별시 성북구 고려대로 지하89(안암동5가),서울특별시,성북구
355,6호선,도시철도 일반역,0,0.0,0.0,서울특별시 성북구 종암로 지하1(종암동),서울특별시,성북구
356,6호선,도시철도 일반역,0,0.0,0.0,서울특별시 성북구 월곡로 지하107(하월곡동),서울특별시,성북구
357,6호선,도시철도 일반역,0,0.0,0.0,서울특별시 성북구 화랑로 지하157(상월곡동),서울특별시,성북구
358,6호선,도시철도 일반역,0,0.0,0.0,서울특별시 성북구 화랑로 지하243(석관동),서울특별시,성북구
359,6호선,도시철도 환승역,수도권  광역철도 1호선,0.0,0.0,서울특별시 노원구 화랑로 지하 347-1(월계동) ,서울특별시,노원구
360,6호선,도시철도 환승역,수도권  도시철도 7호선,0.0,0.0,서울특별시 노원구 동일로 지하 992-1(공릉동),서울특별시,노원구
361,6호선,도시철도 일반역,0,0.0,0.0,서울특별시 노원구 화랑로 지하510(공릉동),서울특별시,노원구
362,6호선,도시철도 일반역,0,0.0,0.0,서울특별시 중랑구 신내로 지하232(신내동),서울특별시,중랑구
363,6호선,도시철도 일반역,0,0.0,0.0,서울특별시 중랑구 용마산로136길 33 신내차량기지,서울특별시,중랑구
364,7호선,도시철도 환승역,수도권  광역철도 1호선,0.0,0.0,서울특별시 도봉구 도봉로 964-40(도봉동),서울특별시,도봉구
365,7호선,도시철도 일반역,0,0.0,0.0,서울특별시 노원구 동일로 지하1662(상계동),서울특별시,노원구
366,7호선,도시철도 일반역,0,0.0,0.0,서울특별시 노원구 동일로 지하1530-1(상계동),서울특별시,노원구
367,7호선,도시철도 환승역,수도권  광역철도 4호선,0.0,0.0,서울특별시 노원구 동일로 지하1409(상계동),서울특별시,노원구
368,7호선,도시철도 일반역,0,0.0,0.0,서울특별시 노원구 동일로 지하1308-1(중계동),서울특별시,노원구
369,7호선,도시철도 일반역,0,0.0,0.0,서울특별시 노원구 동일로 지하1196(하계동),서울특별시,노원구
370,7호선,도시철도 일반역,0,0.0,0.0,서울특별시 노원구 동일로 지하1074(공릉동),서울특별시,노원구
371,7호선,도시철도 환승역,수도권  도시철도 6호선,0.0,0.0,서울특별시 노원구 동일로 지하 992-1(공릉동),서울특별시,노원구
372,7호선,도시철도 일반역,0,0.0,0.0,서울특별시 중랑구 동일로 지하901(묵동),서울특별시,중랑구
373,7호선,도시철도 일반역,0,0.0,0.0,서울특별시 중랑구 동일로 지하797(중화동),서울특별시,중랑구
374,7호선,도시철도 환승역,수도권  광역철도 경춘+수도권 광역철도 경의중앙,0.0,0.0,서울특별시 중랑구 망우로 297(상봉동),서울특별시,중랑구
375,7호선,도시철도 일반역,0,0.0,0.0,서울특별시 중랑구 면목로 지하407(면목동) ,서울특별시,중랑구
376,7호선,도시철도 일반역,0,0.0,0.0,서울특별시 중랑구 사가정로 지하393(면목동),서울특별시,중랑구
377,7호선,도시철도 일반역,0,0.0,0.0,서울특별시 중랑구 용마산로 지하227(면목동),서울특별시,중랑구
378,7호선,도시철도 일반역,0,0.0,0.0,서울특별시 광진구 능동로 지하417(중곡동),서울특별시,광진구
379,7호선,도시철도 환승역,수도권  도시철도 5호선,0.0,0.0,서울특별시 광진구 천호대로 지하550(능동),서울특별시,광진구
380,7호선,도시철도 일반역,0,0.0,0.0,서울특별시 광진구 능동로 지하210(화양동),서울특별시,광진구
381,7호선,도시철도 환승역,수도권  도시철도 2호선,0.0,0.0,서울특별시 광진구 능동로 지하110(화양동),서울특별시,광진구
382,7호선,도시철도 일반역,0,0.0,0.0,서울특별시 광진구 능동로 10(자양동),서울특별시,광진구
383,7호선,도시철도 일반역,0,0.0,0.0,서울특별시 강남구 학동로 지하508(청담동),서울특별시,강남구
384,7호선,도시철도 환승역,수도권  광역철도 분당,0.0,0.0,서울특별시 강남구 학동로 지하346(삼성동),서울특별시,강남구
385,7호선,도시철도 일반역,0,0.0,0.0,서울특별시 강남구 학동로 지하180(논현동),서울특별시,강남구
386,7호선,도시철도 일반역,0,0.0,0.0,서울특별시 강남구 학동로 지하102(논현동),서울특별시,강남구
387,7호선,도시철도 일반역,0,0.0,0.0,서울특별시 서초구 신반포로 지하241(잠원동),서울특별시,서초구
388,7호선,도시철도 환승역,수도권  광역철도 3호선+수도권 도시철도 9호선,0.0,0.0,서울특별시 서초구 신반포로 지하188(반포동),서울특별시,서초구
389,7호선,도시철도 일반역,0,0.0,0.0,서울특별시 서초구 서초대로 지하103(방배동),서울특별시,서초구
390,7호선,도시철도 환승역,수도권  광역철도 4호선,0.0,0.0,서울특별시 동작구 사당로 지하310(사당동),서울특별시,동작구
391,7호선,도시철도 일반역,0,0.0,0.0,서울특별시 동작구 사당로 지하218(사당동),서울특별시,동작구
392,7호선,도시철도 일반역,0,0.0,0.0,서울특별시 동작구 상도로 지하378(상도동),서울특별시,동작구
393,7호선,도시철도 일반역,0,0.0,0.0,서울특별시 동작구 상도로 지하272(상도1동),서울특별시,동작구
394,7호선,도시철도 일반역,0,0.0,0.0,서울특별시 동작구 상도로 지하188(상도동) ,서울특별시,동작구
395,7호선,도시철도 일반역,0,0.0,0.0,서울특별시 동작구 상도로 지하76(대방동),서울특별시,동작구
396,7호선,도시철도 일반역,0,0.0,0.0,서울특별시 동작구 상도로 지하2(대방동),서울특별시,동작구
397,7호선,도시철도 일반역,0,0.0,0.0,서울특별시 영등포구 신풍로 지하27(신길동),서울특별시,영등포구
398,7호선,도시철도 환승역,수도권  도시철도 2호선,0.0,0.0,서울특별시 영등포구 도림로 지하137(대림동),서울특별시,영등포구
399,7호선,도시철도 일반역,0,0.0,0.0,서울특별시 구로구 도림로 지하7(구로동) ,서울특별시,구로구
400,7호선,도시철도 환승역,수도권  광역철도 1호선,0.0,0.0,서울특별시 금천구 벚꽃로 309(가산동),서울특별시,금천구
401,7호선,도시철도 일반역,0,0.0,0.0,서울특별시 구로구 오리로 지하1154(천왕동),서울특별시,구로구
402,7호선,도시철도 환승역,수도권  광역철도 1호선,0.0,0.0,서울특별시 구로구 경인로3길 지하64(온수동),서울특별시,구로구
403,8호선,도시철도 일반역,0,0.0,0.0,서울특별시 강동구 올림픽로 지하776(암사동),서울특별시,강동구
404,8호선,도시철도 환승역,수도권  도시철도 5호선,0.0,0.0,서울특별시 강동구 천호대로 지하997(천호동),서울특별시,강동구
405,8호선,도시철도 일반역,0,0.0,0.0,서울특별시 강동구 올림픽로 지하550(성내동),서울특별시,강동구
406,8호선,도시철도 일반역,0,0.0,0.0,서울특별시 송파구 올림픽로 지하383(신천동),서울특별시,송파구
407,8호선,도시철도 환승역,수도권  도시철도 2호선,0.0,0.0,서울특별시 송파구 올림픽로 305(신천동),서울특별시,송파구
408,8호선,도시철도 일반역,0,0.0,0.0,서울특별시 송파구 송파대로 지하439(석촌동),서울특별시,송파구
409,8호선,도시철도 일반역,0,0.0,0.0,서울특별시 송파구 송파대로 지하354(가락동),서울특별시,송파구
410,8호선,도시철도 환승역,수도권  광역철도 3호선,0.0,0.0,서울특별시 송파구 송파대로 지하257(가락동),서울특별시,송파구
411,8호선,도시철도 일반역,0,0.0,0.0,서울특별시 송파구 송파대로 지하179(문정동),서울특별시,송파구
412,8호선,도시철도 일반역,0,0.0,0.0,서울특별시 송파구 송파대로 지하82(장지동),서울특별시,송파구
413,8호선,도시철도 환승역,수도권  광역철도 분당,0.0,0.0,서울특별시 송파구 송파대로 지하6(장지동),서울특별시,송파구
414,수도권  도시철도 9호선,도시철도 일반역,0,0.0,0.0,서울특별시 강서구 개화동로8길 19,서울특별시,강서구
415,수도권  도시철도 9호선,도시철도 환승역,"수도권  도시철도 5호선
인천국제공항선
김포골드라인
서해선",0.0,0.0,서울특별시 강서구 하늘길 지하77,서울특별시,강서구
416,수도권  도시철도 9호선,도시철도 일반역,0,0.0,0.0,서울특별시 강서구 방화동로 지하30,서울특별시,강서구
417,수도권  도시철도 9호선,도시철도 일반역,0,0.0,0.0,서울특별시 강서구 방화대로 지하301,서울특별시,강서구
418,수도권  도시철도 9호선,도시철도 환승역,인천국제공항선,0.0,0.0,서울특별시 강서구 마곡중앙5로 지하2,서울특별시,강서구
419,수도권  도시철도 9호선,도시철도 일반역,0,0.0,0.0,서울특별시 강서구 양천로 지하341,서울특별시,강서구
420,수도권  도시철도 9호선,도시철도 일반역,0,0.0,0.0,서울특별시 강서구 양천로 지하485,서울특별시,강서구
421,수도권  도시철도 9호선,도시철도 일반역,0,0.0,0.0,서울특별시 강서구 양천로 지하560,서울특별시,강서구
422,수도권  도시철도 9호선,도시철도 일반역,0,0.0,0.0,서울특별시 강서구 공항대로 지하529,서울특별시,강서구
423,수도권  도시철도 9호선,도시철도 일반역,0,0.0,0.0,서울특별시 강서구 공항대로 지하631,서울특별시,강서구
424,수도권  도시철도 9호선,도시철도 일반역,0,0.0,0.0,서울특별시 양천구 목동중앙로 지하217,서울특별시,양천구
425,수도권  도시철도 9호선,도시철도 일반역,0,0.0,0.0,서울특별시 영등포구 양평로 지하124,서울특별시,영등포구
426,수도권  도시철도 9호선,도시철도 환승역,수도권  도시철도 2호선,0.0,0.0,서울특별시 영등포구 당산로 229,서울특별시,영등포구
427,수도권  도시철도 9호선,도시철도 일반역,0,0.0,0.0,서울특별시 영등포구 국회대로 지하758,서울특별시,영등포구
428,수도권  도시철도 9호선,도시철도 환승역,수도권  도시철도 5호선,0.0,0.0,서울특별시 영등포구 의사당대로 지하101 (여의도동),서울특별시,영등포구
429,수도권  도시철도 9호선,도시철도 환승역,수도권 경량도시철도 신림선,0.0,0.0,서울특별시 영등포구 의사당대로 지하166,서울특별시,영등포구
430,수도권  도시철도 9호선,도시철도 환승역,경부선,0.0,0.0,서울특별시 동작구 노량진로 지하130,서울특별시,동작구
431,수도권  도시철도 9호선,도시철도 일반역,0,0.0,0.0,서울특별시 동작구 노량진로 지하238 (본동),서울특별시,동작구
432,수도권  도시철도 9호선,도시철도 일반역,0,0.0,0.0,서울특별시 동작구 현충로 지하90 (흑석동),서울특별시,동작구
433,수도권  도시철도 9호선,도시철도 환승역,수도권  도시철도 4호선,0.0,0.0,서울특별시 동작구 현충로 지하220 (동작동),서울특별시,동작구
434,수도권  도시철도 9호선,도시철도 일반역,0,0.0,0.0,서울특별시 서초구 신반포로 지하17,서울특별시,서초구
435,수도권  도시철도 9호선,도시철도 일반역,0,0.0,0.0,서울특별시 서초구 신반포로 지하105,서울특별시,서초구
436,수도권  도시철도 9호선,도시철도 환승역,"수도권 도시철도 3호선
수도권 도시철도 7호선",0.0,0.0,서울특별시 서초구 신반포로 지하188,서울특별시,서초구
437,수도권  도시철도 9호선,도시철도 일반역,0,0.0,0.0,서울특별시 서초구 사평대로 지하285,서울특별시,서초구
438,수도권  도시철도 9호선,도시철도 환승역,신분당선,0.0,0.0,서울특별시 강남구 봉은사로 지하102,서울특별시,강남구
439,수도권  도시철도 9호선,도시철도 일반역,0,0.0,0.0,서울특별시 강남구 봉은사로 201,서울특별시,강남구
440,수도권  도시철도 9호선,도시철도 환승역,수인분당선,0.0,0.0,서울특별시 강남구 선릉로 580,서울특별시,강남구
441,수도권  도시철도 9호선,도시철도 일반역,0,0.0,0.0,서울특별시 강남구 봉은사로 501,서울특별시,강남구
442,수도권  도시철도 9호선,도시철도 일반역,0,0.0,0.0,서울특별시 강남구 봉은사로 601,서울특별시,강남구
443,수도권  도시철도 9호선,도시철도 환승역,수도권  도시철도 2호선,0.0,0.0,서울특별시 송파구 올림픽로 23,서울특별시,송파구
444,수도권  도시철도 9호선,도시철도 일반역,0,0.0,0.0,서울특별시 송파구 백제고분로 지하 187,서울특별시,송파구
445,수도권  도시철도 9호선,도시철도 일반역,0,0.0,0.0,서울특별시 송파구 삼학사로 지하 53 ,서울특별시,송파구
446,수도권  도시철도 9호선,도시철도 환승역,수도권  도시철도 8호선,0.0,0.0,서울특별시 송파구 석촌동 209,서울특별시,송파구
447,수도권  도시철도 9호선,도시철도 일반역,0,0.0,0.0,서울특별시 송파구 백제고분로 지하 446,서울특별시,송파구
448,수도권  도시철도 9호선,도시철도 일반역,0,0.0,0.0,서울특별시 송파구 위례성대로 지하 51,서울특별시,송파구
449,수도권  도시철도 9호선,도시철도 환승역,수도권  도시철도 5호선,0.0,0.0,서울특별시 송파구 양재대로 지하 1233,서울특별시,송파구
450,수도권  도시철도 9호선,도시철도 일반역,0,0.0,0.0,서울특별시 강동구 강동대로 지하 327,서울특별시,강동구
451,수도권  도시철도 9호선,도시철도 일반역,0,0.0,0.0,서울특별시 강동구 명일로 지하 117,서울특별시,강동구
452,경의중앙선,일반역,0,37.559768,126.942308,서울특별시 서대문구 대현동 74-12,서울특별시,서대문구
453,경의중앙선,환승역,경춘선,37.594948,127.076152,서울특별시 중랑구 중화동 321-37,서울특별시,중랑구
454,경춘선,환승역,경의중앙선,37.594948,127.076152,서울특별시 중랑구 중화동 321-37,서울특별시,중랑구
455,동해선,일반역,0,35.164668,129.06011,부산광역시 부산진구 부전동 280-76,부산광역시,부산진구
456,동해선,환승역,부산지하철3호선,35.182197,129.069315,부산광역시 연제구 거제동 619-1,부산광역시,연제구
457,동해선,일반역,0,35.188587,129.073904,부산광역시 연제구 거제동 619-1,부산광역시,연제구
458,동해선,환승역,부산지하철1호선,37.492975,127.013814,부산광역시 연제구 거제동 42-3,부산광역시,연제구
459,동해선,일반역,0,35.205614,129.078502,부산광역시 동래구 낙민동 130-4,부산광역시,동래구
460,동해선,일반역,0,35.195907,129.101062,부산광역시 동래구 안락동 201-2,부산광역시,동래구
461,동해선,일반역,0,35.189,129.120919,부산광역시 해운대구 재송동 933-1,부산광역시,해운대구
462,동해선,일반역,0,35.168921,129.131659,부산광역시 해운대구 우동 1215-32,부산광역시,해운대구
463,동해선,환승역,부산지하철2호선,35.16899,129.13868,부산광역시 해운대구 우동 1111-2,부산광역시,해운대구
464,동해선,일반역,0,35.181832,129.176696,부산광역시 해운대구 좌동 138-4,부산광역시,해운대구
465,동해선,일반역,0,35.137559,126.791535,부산광역시 해운대구 송정동 299-2,부산광역시,해운대구
466,동해선,일반역,0,35.196256,129.208291,부산광역시 기장군 기장읍 당사리 261,부산광역시,기장군
467,동해선,일반역,0,35.243027,129.218551,부산광역시 기장군 기장읍 청강리 25-16,부산광역시,기장군
468,동해선,일반역,0,35.265565,129.233307,부산광역시 기장군 일광면 이천리 750-4,부산광역시,기장군
469,서해선,일반역,0,37.5621179,126.8028568,서울특별시 강서구 하늘길 지하 77,서울특별시,강서구
